,Place Name,Place ID,Latitude,Longitude,rating,Types,Vicinity
0,Agarwal Namkeen Bhandar,ChIJqbYMeYwFZTkRt5gY8kxEAvg,24.4151928,75.8335733,2.5,"['restaurant', 'food', 'point_of_interest', 'establishment']","Ashram Road, Bhawani Mandi"
1,Ashirwad kachori and chat center,ChIJO4hbfosFZTkRtV3sADtyGnc,24.41545409999999,75.8328672,4.7,"['restaurant', 'food', 'point_of_interest', 'establishment']","Ashirwad kachori and chat center, sbi bank ,nehru park circle, Bhawani Mandi"
2,Foreign,ChIJb5_fZ98FZTkRSEGca2FkfPk,24.4173186,75.8324561,4.2,"['cafe', 'restaurant', 'food', 'point_of_interest', 'establishment']","Station Road, Bhawani Mandi"
3,Shiv shakti gajak&namkeen,ChIJL8oV5k4FZTkRAkMdDErw1oo,24.41545219999999,75.8324043,0.0,"['restaurant', 'food', 'point_of_interest', 'establishment']","Nehru park, Bhawani Mandi"
4,shree nath pavbhaji center,ChIJlQtcZDAFZTkR4aFhlRsPGWk,24.41513169999999,75.8326699,4.5,"['restaurant', 'food', 'point_of_interest', 'establishment']","Ashram Road, Bhawani Mandi"
5,Hotel Shri Radhe Govindam,ChIJWRG2ZosFZTkRHHRnquynvT4,24.4155513,75.832022,3.9,"['restaurant', 'food', 'point_of_interest', 'establishment']","near Nehru Park, Bhawani Mandi"
6,Shree Chat Chopati,ChIJ2dqPnIwFZTkRNIz2lfMKx4I,24.4150947,75.8320667,4.8,"['restaurant', 'food', 'point_of_interest', 'establishment']","Near nehru park, in front of gurudwara, Bhawani Mandi"
7,ordershake,ChIJ26NYYQ0FZTkRUlu6nka8V64,24.4187531,75.834875,0.0,"['restaurant', 'food', 'point_of_interest', 'establishment']","near Hanuman Mandir, 169, s3events, near Hanuman Mandir, Bhensoda Mandi, Gandhi Colony, Bhawani Mandi"
8,SHREE GOVIND KACHORI AND MISTHAN BHANDAR,ChIJ2w6m-F4FZTkRjtjKdWTY39k,24.4173358,75.83117159999999,4.7,"['restaurant', 'food', 'point_of_interest', 'establishment']","opp. vijay takij, GANDHI CIRCLE ke pass Madhav rav sindhiya complex, opp. vijay takij, Bhawani Mandi"
9,Jain Kachori,ChIJi3Vwb54FZTkR6ck2IooDwuo,24.4170562,75.8310649,0.0,"['restaurant', 'food', 'point_of_interest', 'establishment']","CR8J+RCG, Bhawani Mandi"
10,Bandhu Kachori,ChIJld8SJYsFZTkR2ahldqz4iLg,24.4172125,75.83097409999999,4.1,"['restaurant', 'food', 'point_of_interest', 'establishment']","Station Road, Gandhi Circle, Bhawani Mandi"
11,Gouri Misthan Bhandar,ChIJ52Q8JYsFZTkR9KNJ4AT__dM,24.4173667,75.8310029,2.8,"['restaurant', 'food', 'point_of_interest', 'establishment']","CR8J+WCR, Bhawani Mandi"
12,Vishnu Bhojanalay,ChIJo7zsJYsFZTkRPVC6EMXxdEU,24.4175667,75.830945,4.0,"['restaurant', 'food', 'point_of_interest', 'establishment']","Pachpahar Road, Bhawani Mandi"
13,Maheshwari Food Plaza,ChIJyyLlMIsFZTkROZW0qlOudUA,24.4170376,75.8307353,3.5,"['restaurant', 'food', 'point_of_interest', 'establishment']","CR8J+R79, Bhawani Mandi"
14,Medatwal Sweets And Restaurant,ChIJA0YEnI4FZTkR8Pk2uIPITFc,24.4137933,75.83627849999999,4.0,"['bakery', 'restaurant', 'food', 'point_of_interest', 'store', 'establishment']","Jalawad Road, Tagar Chauraha, Jhalawar District, Bhawani Mandi"
15,Jodhpur Sweets And Namkeen,ChIJUyWT0IoFZTkRdAv8PvMg9kk,24.418494,75.830713,3.5,"['restaurant', 'food', 'point_of_interest', 'store', 'establishment']","station choraha, Bhawani Mandi"
16,Shri Ram Hotel & Restaurant,ChIJO5lRj4wFZTkR3FqqTyBdjHM,24.4129512,75.83530689999999,3.3,"['restaurant', 'food', 'point_of_interest', 'establishment']","Near new sabji mandi hotel akash, Bhawani Mandi"
17,Falodi Restaurant,ChIJtWnALC0FZTkRWhTe_ty18ag,24.413519,75.8365895,5.0,"['restaurant', 'food', 'point_of_interest', 'establishment']","Tagar mohalla, Bhawani Mandi"
18,Raj Pan Post Office Road Bhawani Mandi (Raj.),ChIJIR1Hrd8FZTkRnyGKoloZKqU,24.4172464,75.82952,3.3,"['restaurant', 'food', 'point_of_interest', 'establishment']","post office raod, Bhawani Mandi"
19,Hari Plaza,ChIJwa4jON4FZTkR1NVSKpChszI,24.4172593,75.83869609999999,4.5,"['restaurant', 'food', 'point_of_interest', 'establishment']","CR8Q+WF4, Bhawani Mandi"
20,Pareek Restaurant,ChIJ9cBHql4FZTkR2kWINuH21E0,24.4128374,75.8376866,0.0,"['restaurant', 'food', 'point_of_interest', 'establishment']","CR7Q+43M, Bhawani Mandi"
21,Laxmi Bangles,ChIJKb3Dr6AFZTkRj7PFNu2pqm8,24.4147037,75.8285569,4.0,"['restaurant', 'food', 'point_of_interest', 'establishment']","Laxmi Bangles radheshyam mandir ki Gali, Bhawani Mandi"
22,Vijay Juice Point,ChIJqxRccW4FZTkRtJMTpd4NyG4,24.41674,75.8280501,4.2,"['restaurant', 'food', 'point_of_interest', 'establishment']","Pachpahar Road, Bhawani Mandi"
23,Tasty tadka cafe,ChIJ7bCBVBIFZTkRvac0LIRyO5Q,24.4161321,75.8279955,0.0,"['restaurant', 'food', 'point_of_interest', 'establishment']","Sindhi Mohalla Road, Bhawani Mandi"
24,Khandelwal Tiffin Center,ChIJA33O_O4FZTkRo_nzWzP8yb4,24.4134813,75.8278493,5.0,"['restaurant', 'food', 'point_of_interest', 'establishment']","RSEB Road, Bhawani Mandi"
25,Shankar Chai Wala,ChIJZZ5gyYwFZTkRwRmHrSHSwlA,24.4156055,75.8263365,5.0,"['restaurant', 'food', 'point_of_interest', 'establishment']","Pachpahar Road, Bhawani Mandi"
26,Khusi Coffee And Juce Shop,ChIJi0_fnpcFZTkRi2mLV17GBmc,24.4095508,75.8327061,5.0,"['restaurant', 'food', 'point_of_interest', 'establishment']","Bhawani Mandi Bypass Road, Bhawani Mandi"
27,Ranglal Tea Shop,ChIJh1kbWu0FZTkRcfRevhcFFfo,24.4086941,75.82936959999999,3.0,"['restaurant', 'cafe', 'food', 'point_of_interest', 'establishment']","CR5H+FPH, Bhawani Mandi"
28,Rainbow family restaurant,ChIJheZeVn0FZTkRSfsJ8j-ikqQ,24.4074323,75.8352139,4.4,"['restaurant', 'food', 'point_of_interest', 'establishment']","opposite shivalay, Bypass, Bhawani Mandi"
29,सीता राम रेस्टोरेंट,ChIJqS65U_EFZTkRV9wUnTcSiPk,24.4141893,75.8238554,3.8,"['restaurant', 'food', 'point_of_interest', 'establishment']","श्री सीताराम पंजाबी अल्पाहार रेस्टोरेंट, Bhawani Mandi"
30,Shubham Kirana Store And Tea Stall,ChIJ4aC7ym0FZTkRZOWXkxY5PdA,24.4118876,75.8438912,5.0,"['restaurant', 'food', 'point_of_interest', 'establishment']","CR6V+QH2, Bhawani Mandi"
31,Bajot dhani,ChIJdwOrmK0FZTkRvMZy45rGsdg,24.4068036,75.82929469999999,4.5,"['restaurant', 'food', 'point_of_interest', 'establishment']",Bhawani Mandi
32,The la-eatos,ChIJGXSGPFgFZTkREYh5LkxDoI4,24.4054987,75.83263939999999,4.5,"['restaurant', 'food', 'point_of_interest', 'establishment']",Bhawani Mandi Bypass Road
33,HOTEL KANHA RESIDENCY,ChIJXw0M8PYFZTkRKyA0EVptmNA,24.4160665,75.82095129999999,3.7,"['lodging', 'restaurant', 'food', 'health', 'point_of_interest', 'establishment']","Bhanpura - Bhawani Mandi Road, Bhawani Mandi"
34,Sagar Restaurant,ChIJH2nTO44FZTkRoSOQbTr4WdQ,24.4125406,75.8214629,5.0,"['restaurant', 'food', 'point_of_interest', 'establishment']","CR7C+2H8, Bhawani Mandi"
35,HIGHWAY RASOI A CAFETERIA AND VEG FAMILY RESTAURANT,ChIJy7AERCEFZTkRji4kSqYUJ40,24.4107802,75.84699859999999,0.0,"['restaurant', 'food', 'point_of_interest', 'establishment']","Ramnagar, Jhalawar road, Bhawani Mandi"
36,pal hotel,ChIJJ4IyhPoFZTkR_qEBgG17FDU,24.4104351,75.8181463,3.8,"['store', 'restaurant', 'food', 'point_of_interest', 'establishment']",R.TM. Coleney ke samne (pal dhabba Bhawanimandi(Raj
37,Pareek Restaurant,ChIJoTramk0FZTkRGJCWtYYbv_M,24.4054876,75.8214371,0.0,"['restaurant', 'food', 'point_of_interest', 'establishment']","police station, opp. HP PETROL PUMP Nea, Bhawani Mandi"
38,Sanju online shop,ChIJ23M0BVAFZTkRLAIPEKkXcoc,24.4054876,75.8214371,0.0,"['restaurant', 'food', 'point_of_interest', 'establishment']","Bhawani mandi, Kota"
39,Khatti imli,ChIJu96nYuMFZTkR_7vF-P0zHZU,24.4054876,75.8214371,4.3,"['restaurant', 'food', 'point_of_interest', 'establishment']","near noon hospital, guru kripa restaurant, near noon hospital, Bhawani Mandi"
40,Tvs Showroom,ChIJ737TvFsFZTkRoty6hOGnVnQ,24.4054875,75.8214371,0.0,"['restaurant', 'food', 'point_of_interest', 'establishment']","road, Bhawani Mandi"
41,Maaheshwari restaurant,ChIJrY4ded0FZTkRegHVjBECqQI,24.418801,75.8307595,0.0,"['restaurant', 'food', 'point_of_interest', 'establishment']","CR9J+G8C, Bhawani Mandi"
